City_ID,City,Cloudiness,Country,Date,Humidity,Lat,Lng,Max Temp,Wind Speed
0,nakamura,20,JP,1535209200,83,35.17,136.87,84.2,1.12
1,albany,75,US,1535212260,62,42.65,-73.75,75.2,9.17
2,puerto ayora,75,EC,1535209200,69,-0.74,-90.35,75.2,12.75
3,dikson,44,RU,1535212890,93,73.51,80.55,50.12,7.07
4,ushuaia,40,AR,1535209200,52,-54.81,-68.31,42.8,11.41
5,barrow,0,AR,1535212890,66,-38.31,-60.23,51.29,10.09
6,grindavik,20,IS,1535209200,62,63.84,-22.43,51.8,6.93
7,pyaozerskiy,88,RU,1535212890,84,65.83,31.17,62.72,9.08
8,yellowknife,75,CA,1535209200,81,62.45,-114.38,50.0,4.7
9,richards bay,20,ZA,1535212946,64,-28.77,32.06,76.58,13.0
10,lavrentiya,12,RU,1535212761,100,65.58,-170.99,44.45,7.96
11,gushikawa,40,JP,1535209800,88,26.35,127.87,81.5,11.41
12,upernavik,48,GL,1535212733,91,72.79,-56.15,41.57,24.74
13,new norfolk,0,AU,1535211000,75,-42.78,147.06,46.4,10.29
14,banda aceh,88,ID,1535212893,76,5.56,95.32,80.0,6.4
15,saint george,40,GR,1535210400,58,39.45,22.34,84.2,12.75
16,hermanus,8,ZA,1535212893,59,-34.42,19.24,58.22,18.7
17,medicine hat,75,CA,1535210280,81,50.04,-110.68,50.0,2.24
18,morondava,0,MG,1535212894,64,-20.3,44.28,79.28,6.06
19,the valley,40,AI,1535209200,58,18.22,-63.06,87.8,16.11
20,punta arenas,75,CL,1535209200,70,-53.16,-70.91,44.6,12.75
21,east london,0,ZA,1535209200,40,-33.02,27.91,73.4,5.82
22,bredasdorp,0,ZA,1535209200,32,-34.53,20.04,69.8,16.11
23,wuchang,92,CN,1535212895,98,44.93,127.16,63.71,5.73
24,butaritari,0,KI,1535212895,100,3.07,172.79,83.78,3.38
25,port alfred,0,ZA,1535212711,63,-33.59,26.89,71.36,8.63
26,caravelas,0,BR,1535212896,98,-17.73,-39.27,76.49,9.53
27,saint-paul,90,FR,1535211000,63,45.22,1.9,64.4,10.29
28,pascagoula,1,US,1535212380,61,30.37,-88.56,89.06,3.36
29,tautira,36,PF,1535211000,78,-17.73,-149.15,73.4,4.7
30,touros,8,BR,1535212711,74,-5.2,-35.46,82.88,16.58
31,lebu,48,ET,1535212897,86,8.96,38.73,59.03,3.04
32,isangel,68,VU,1535212898,100,-19.55,169.27,72.17,17.13
33,lata,76,IN,1535212898,100,30.78,78.62,59.21,1.48
34,tura,80,IN,1535212898,90,25.52,90.21,81.8,2.15
35,danville,1,US,1535212440,50,36.59,-79.4,78.98,5.82
36,tual,64,ID,1535212899,100,-5.67,132.75,78.92,9.64
37,san vicente,0,SV,1535212200,74,13.64,-88.78,89.6,5.82
38,katsuura,0,JP,1535212900,85,33.93,134.5,77.57,4.61
39,lamont,0,CA,1535212901,94,53.76,-112.78,45.8,4.38
40,arys,0,KZ,1535209200,24,42.43,68.8,68.0,6.71
41,husavik,36,CA,1535212901,95,50.56,-96.99,67.58,10.42
42,saldanha,0,PT,1535212901,32,41.42,-6.55,83.24,3.71
43,bethel,92,US,1535212902,96,60.79,-161.76,49.76,8.41
44,grinnell,1,US,1535211300,88,41.74,-92.72,80.6,8.05
45,rikitea,88,PF,1535212902,100,-23.12,-134.97,71.81,12.44
46,launceston,90,AU,1535211000,87,-41.43,147.14,44.6,12.75
47,hualmay,24,PE,1535212903,73,-11.1,-77.61,65.51,4.5
48,qaanaaq,0,GL,1535212871,99,77.48,-69.36,36.44,3.94
49,hilo,90,US,1535208780,93,19.71,-155.08,73.04,4.7
50,lorengau,20,PG,1535212903,100,-2.02,147.27,79.82,1.59
51,san patricio,0,PY,1535212694,70,-26.98,-56.83,59.03,3.6
52,ketchikan,90,US,1535208960,86,55.34,-131.65,57.02,11.41
53,manaquiri,40,BR,1535212800,59,-3.43,-60.46,91.4,6.93
54,kapaa,90,US,1535211540,97,22.08,-159.32,75.92,18.34
55,kochi,48,IN,1535212904,90,9.96,76.25,77.12,6.62
56,dapaong,88,TG,1535212904,100,10.86,0.2,76.67,6.06
57,busselton,24,AU,1535212875,100,-33.64,115.35,53.18,6.96
58,nakhon thai,92,TH,1535212904,98,17.1,100.84,71.09,4.16
59,cuamba,76,MZ,1535212905,28,-14.8,36.54,80.36,3.6
60,hobart,0,AU,1535211000,75,-42.88,147.33,46.4,10.29
61,hami,56,CN,1535212905,38,42.84,93.51,73.79,3.71
62,fortuna,0,ES,1535211000,62,38.18,-1.13,93.2,6.93
63,sitia,8,GR,1535212906,97,35.21,26.11,80.18,7.4
64,mponela,0,MW,1535212906,43,-13.53,33.74,72.53,11.77
65,hamilton,40,BM,1535208900,70,32.3,-64.78,86.0,8.05
66,matara,0,PE,1535209200,57,-13.74,-72.9,51.8,2.48
67,mahebourg,40,MU,1535209200,69,-20.41,57.7,73.4,12.75
68,oriximina,0,BR,1535212907,50,-1.77,-55.87,91.79,5.61
69,hithadhoo,80,MV,1535212907,100,-0.6,73.08,81.26,4.16
70,saint-augustin,75,FR,1535211000,56,44.83,-0.61,69.8,12.75
71,mataura,0,NZ,1535212908,96,-46.19,168.86,36.89,7.74
72,salamiyah,0,SY,1535212908,22,35.01,37.05,89.27,15.68
73,parga,20,ES,1535211000,68,43.39,-8.21,71.6,9.17
74,bonthe,56,SL,1535212909,90,7.53,-12.5,80.63,6.62
75,havoysund,92,NO,1535210400,71,71.0,24.66,55.4,9.17
76,jamestown,0,AU,1535212687,80,-33.21,138.6,36.71,2.59
77,el tocuyo,75,VE,1535209200,61,9.79,-69.8,80.6,13.87
78,dunedin,0,NZ,1535212687,80,-45.87,170.5,32.12,1.48
79,puerto madryn,0,AR,1535212909,63,-42.77,-65.04,52.28,8.97
80,sao filipe,0,CV,1535212733,88,14.9,-24.5,81.8,6.73
81,codrington,44,AU,1535212910,90,-28.95,153.24,47.15,1.59
82,alpena,75,US,1535211360,92,45.06,-83.43,71.06,11.41
83,victoria,75,BN,1535211000,83,5.28,115.24,82.4,1.12
84,kamenka,0,RU,1535212911,34,53.19,44.05,77.21,3.6
85,port augusta,0,AU,1535209200,87,-32.49,137.76,46.4,5.82
86,mount isa,0,AU,1535211000,37,-20.73,139.49,51.8,1.12
87,deputatskiy,0,RU,1535212709,91,69.3,139.9,28.52,2.59
88,atuona,12,PF,1535212912,100,-9.8,-139.03,78.65,17.58
89,roebourne,0,AU,1535212912,74,-20.77,117.15,52.37,3.94
90,kibondo,80,TZ,1535212912,89,-3.59,30.72,65.6,3.15
91,kazachinskoye,0,RU,1535212912,83,57.69,93.28,57.05,4.94
92,brainerd,90,US,1535212140,100,46.36,-94.2,66.2,4.61
93,vadso,80,NO,1535210400,82,70.07,29.75,62.6,21.92
94,nikolskoye,75,RU,1535209200,73,59.7,30.79,69.8,6.71
95,sikasso,80,ML,1535212913,93,11.32,-5.68,73.88,13.0
96,timizart,48,DZ,1535212913,28,36.8,4.25,88.82,2.48
97,yurty,0,RU,1535212914,66,56.05,97.64,62.36,5.17
98,cururupu,68,BR,1535212914,68,-1.82,-44.87,86.48,12.21
99,bluff,80,AU,1535212914,92,-23.58,149.07,60.38,8.75
100,shimoda,36,JP,1535212914,91,34.7,138.93,80.27,17.81
101,mattru,56,SL,1535212915,92,7.62,-11.83,81.17,7.63
102,cockburn town,76,TC,1535212915,94,21.46,-71.14,84.5,19.15
103,mount gambier,80,AU,1535212881,81,-37.83,140.78,41.48,4.38
104,san jeronimo,0,PE,1535209200,57,-13.65,-73.37,51.8,2.48
105,bosobolo,20,CD,1535212916,81,4.19,19.88,81.53,4.5
106,chuy,8,UY,1535212895,79,-33.69,-53.46,53.45,30.67
107,canutama,0,BR,1535212916,75,-6.53,-64.38,87.47,3.15
108,corinth,20,GR,1535210400,51,37.94,22.93,86.0,11.41
109,vila velha,20,BR,1535212800,58,-3.71,-38.6,86.0,17.22
110,northam,20,GB,1535210400,42,51.04,-4.21,64.4,10.29
111,puerto quijarro,0,BO,1535209200,27,-19.0,-57.72,73.4,9.17
112,melfort,90,CA,1535209200,93,52.87,-104.61,46.4,10.29
113,nizhniy odes,0,RU,1535212918,77,63.64,54.86,57.14,3.04
114,ribeira grande,40,PT,1535211000,69,38.52,-28.7,77.0,6.93
115,katherine,75,AU,1535211000,53,-14.47,132.26,71.6,8.05
116,chokurdakh,68,RU,1535212887,90,70.62,147.9,39.68,6.17
117,roald,40,NO,1535210400,76,62.58,6.12,57.2,10.29
118,sept-iles,90,CA,1535209200,68,50.2,-66.38,66.2,4.7
119,thompson,90,CA,1535209200,100,55.74,-97.86,44.6,9.17
120,los llanos de aridane,20,ES,1535211000,69,28.66,-17.92,78.8,11.41
121,kralendijk,8,BQ,1535208900,62,12.15,-68.27,87.8,19.46
122,kibala,40,TD,1535209200,70,9.11,18.35,84.2,12.21
123,saint-pierre,0,FR,1535211000,39,48.95,4.24,68.0,10.29
124,kutum,44,SD,1535212921,68,14.2,24.66,78.65,3.94
125,bilibino,92,RU,1535212921,98,68.06,166.44,34.1,2.93
126,avarua,20,CK,1535209200,88,-21.21,-159.78,73.4,8.05
127,kodiak,1,US,1535212380,74,39.95,-94.76,84.02,9.17
128,mar del plata,8,AR,1535212626,52,-46.43,-67.52,56.78,17.58
129,avera,40,US,1535211300,64,33.19,-82.53,82.94,6.93
130,pevek,88,RU,1535212725,100,69.7,170.27,35.09,10.42
131,vaini,88,IN,1535212922,98,15.34,74.49,67.67,5.61
132,norman wells,75,CA,1535209500,93,65.28,-126.83,48.2,2.24
133,khatanga,0,RU,1535212923,67,71.98,102.47,52.82,10.09
134,morro bay,90,US,1535208960,80,35.37,-120.85,60.08,5.82
135,san quintin,75,PH,1535209200,94,17.54,120.52,77.0,4.7
136,zhigansk,0,RU,1535212923,66,66.77,123.37,51.38,6.06
137,gao,12,ML,1535212924,54,16.28,-0.04,94.85,9.53
138,bellavista,76,CO,1535212924,96,6.57,-76.89,75.14,2.71
139,cayenne,20,GF,1535211000,55,4.94,-52.33,89.6,8.05
140,georgetown,75,GY,1535209200,70,6.8,-58.16,86.0,11.41
141,pamyat parizhskoy kommuny,20,RU,1535209200,60,56.1,44.5,75.2,4.47
142,hasaki,75,JP,1535209200,88,35.73,140.83,80.6,3.36
143,castro,92,CL,1535212870,99,-42.48,-73.76,50.75,5.39
144,lincoln,1,US,1535212500,67,40.8,-96.67,82.58,4.7
145,kaitangata,0,NZ,1535212926,73,-46.28,169.85,46.07,16.46
146,helong,92,CN,1535212926,98,25.94,116.13,70.64,2.71
147,grand-santi,0,GF,1535212927,54,4.27,-54.38,88.82,3.71
148,namie,8,JP,1535212927,92,37.52,140.86,77.12,3.94
149,saint-philippe,1,CA,1535211300,57,45.36,-73.48,80.6,4.7
150,saskylakh,0,RU,1535212928,88,71.97,114.09,45.98,7.18
151,vardo,5,US,1535212020,54,39.62,-77.74,78.8,4.7
152,grand gaube,40,MU,1535209200,69,-20.01,57.66,73.4,12.75
153,abu dhabi,0,AE,1535209200,71,24.47,54.37,96.8,9.17
154,pushkinskiye gory,44,RU,1535212929,78,57.02,28.91,73.34,12.21
155,cabo san lucas,20,MX,1535208360,62,22.89,-109.91,84.2,6.17
156,carnarvon,0,ZA,1535212724,16,-30.97,22.13,61.01,20.27
157,catuday,92,PH,1535212929,100,16.29,119.81,75.5,10.54
158,sergiyevsk,0,RU,1535212930,67,53.94,51.16,65.15,6.96
159,ponta do sol,68,BR,1535212725,91,-20.63,-46.0,68.93,3.04
160,mao,75,DO,1535209200,58,19.55,-71.08,89.6,18.34
161,tottori,0,JP,1535212931,90,35.5,134.23,75.86,3.15
162,porto-vecchio,0,FR,1535211000,54,41.59,9.28,87.8,19.46
163,ternate,75,PH,1535209200,100,14.29,120.72,82.4,8.05
164,san policarpo,44,PH,1535212931,100,12.18,125.51,77.3,5.61
165,seoul,20,KR,1535211000,73,37.57,126.98,73.4,5.82
166,san jose ojetenan,90,GT,1535208420,83,15.22,-91.97,80.6,1.92
167,kroya,0,ID,1535212932,91,-6.5,108.06,72.89,1.7
168,cape town,75,ZA,1535209200,76,-33.93,18.42,57.2,33.33
169,cherskiy,80,RU,1535212726,99,68.75,161.3,35.0,7.18
170,esperance,75,TT,1535209200,66,10.24,-61.45,86.0,13.87
171,yulara,0,AU,1535209200,42,-25.24,130.99,44.6,3.36
172,carballo,20,ES,1535211000,68,43.21,-8.69,71.6,9.17
173,lazaro cardenas,40,MX,1535208780,60,28.39,-105.62,71.6,4.16
174,sol-iletsk,0,RU,1535212934,38,51.16,55.0,69.92,11.43
175,bodden town,20,KY,1535209200,66,19.28,-81.25,87.8,12.75
176,finschhafen,80,PG,1535212934,96,-6.6,147.85,70.19,3.04
177,airai,76,TL,1535212742,93,-8.93,125.41,68.75,2.04
178,torbay,90,CA,1535209200,60,47.66,-52.73,73.4,12.75
179,silver city,1,US,1535212500,53,32.77,-108.28,73.58,9.17
180,kavieng,76,PG,1535212991,100,-2.57,150.8,83.33,3.49
181,sorland,92,NO,1535212937,100,67.67,12.69,52.82,15.01
182,prado,0,BR,1535212937,96,-17.34,-39.22,76.85,10.2
183,tuatapere,0,NZ,1535212937,95,-46.13,167.69,49.76,19.15
184,buala,88,SB,1535212938,99,-8.15,159.59,78.92,6.06
185,sines,0,PT,1535212938,74,37.96,-8.87,72.8,20.71
186,faanui,88,PF,1535212938,100,-16.48,-151.75,79.82,10.09
187,marienburg,75,DE,1535210400,62,52.12,9.98,62.6,11.41
188,berezovyy,32,RU,1535212939,89,51.67,135.7,55.88,2.15
189,key largo,90,US,1535211600,79,25.09,-80.45,80.06,9.17
190,port elizabeth,20,US,1535212500,55,39.31,-74.98,80.06,5.82
191,kargasok,8,RU,1535212940,90,59.06,80.87,57.14,4.5
192,itubera,0,BR,1535212940,79,-13.73,-39.15,79.91,9.08
193,luanda,0,AO,1535209200,73,-8.83,13.24,75.2,6.93
194,dulce grande,5,MX,1535209080,52,23.0,-102.17,66.2,6.17
195,havre-saint-pierre,20,CA,1535209200,73,50.23,-63.6,69.8,14.99
196,leningradskiy,92,RU,1535212941,100,69.38,178.42,36.62,10.76
197,santiago,0,CL,1535212800,35,-33.44,-70.65,57.2,2.24
198,geraldton,90,CA,1535210820,93,49.72,-86.95,62.6,4.7
199,bela,0,PK,1535212858,54,26.23,66.31,84.32,5.39
200,vestmanna,80,FO,1535210400,87,62.16,-7.17,48.2,4.7
201,camacha,40,PT,1535211000,69,33.08,-16.33,78.8,16.11
202,longyearbyen,40,NO,1535208600,60,78.22,15.63,41.0,19.46
203,coquimbo,0,CL,1535209200,58,-29.95,-71.34,59.0,14.99
204,lagunas,0,PE,1535212943,75,-5.23,-75.68,85.31,3.04
205,toccoa,1,US,1535211300,64,34.58,-83.33,78.08,3.15
206,calabozo,8,VE,1535212943,79,8.92,-67.43,84.95,13.22
207,marawi,44,PH,1535212944,98,8.0,124.29,67.85,1.14
208,viedma,0,AR,1535212839,47,-40.81,-62.99,53.9,9.19
209,hohhot,0,CN,1535209200,77,40.81,111.65,62.6,4.47
210,ilulissat,90,GL,1535212200,81,69.22,-51.1,42.8,9.17
211,kolhapur,88,IN,1535212945,97,16.7,74.24,70.55,11.43
212,kampot,80,KH,1535212945,79,10.62,104.18,79.28,5.39
213,marsh harbour,8,BS,1535212836,96,26.54,-77.06,84.86,13.44
214,iqaluit,75,CA,1535209200,93,63.75,-68.52,41.0,6.93
215,waingapu,0,ID,1535212946,91,-9.65,120.26,69.38,5.06
216,nicolas bravo,5,MX,1535208300,63,24.39,-104.74,64.4,3.15
217,izumo,75,JP,1535209200,88,35.37,132.75,78.8,2.24
218,chicholi,92,IN,1535212947,94,21.45,79.7,74.42,6.17
219,biak,88,ID,1535212947,96,-0.91,122.88,77.12,3.15
220,caceres,8,CO,1535212948,71,5.53,-74.53,77.66,2.37
221,hovd,40,NO,1535210400,66,63.83,10.7,55.4,10.29
222,erenhot,92,CN,1535213003,45,43.65,111.97,71.99,10.42
223,gamba,24,CN,1535212949,97,28.28,88.52,34.37,2.48
224,iwanai,92,JP,1535212949,97,42.97,140.51,69.02,18.81
225,tasiilaq,75,GL,1535212200,100,65.61,-37.64,42.8,10.29
226,hobyo,0,SO,1535212725,65,5.35,48.53,78.83,22.84
227,vestmannaeyjar,0,IS,1535212883,82,63.44,-20.27,53.18,6.73
228,brae,76,GB,1535210400,66,60.4,-1.35,53.6,17.22
229,marana,90,US,1535209080,77,32.44,-111.22,73.4,3.36
230,aswan,0,EG,1535209200,12,24.09,32.9,105.8,9.17
231,shaowu,80,CN,1535212950,96,27.34,117.49,72.35,2.04
232,potsdam,40,DE,1535210400,59,52.4,13.06,64.4,10.29
233,aras,80,YE,1535212750,28,14.28,44.38,74.87,2.93
234,valdez,75,US,1535210400,93,61.13,-146.35,46.4,4.7
235,terrace,90,CA,1535209200,93,54.52,-128.61,53.6,10.29
236,clyde river,90,CA,1535209200,93,70.47,-68.59,37.4,24.16
237,nkayi,8,CG,1535212952,60,-4.18,13.29,86.12,2.93
238,anadyr,75,RU,1535209200,100,64.73,177.51,46.4,8.95
239,bambous virieux,40,MU,1535209200,69,-20.34,57.76,73.4,12.75
240,bafilo,75,TG,1535209200,74,9.35,1.24,78.8,10.29
241,murdochville,12,CA,1535212952,68,48.96,-65.49,71.99,10.98
242,lysyye gory,0,RU,1535212953,31,51.55,44.84,76.67,3.6
243,barcelos,0,PT,1535211000,56,41.53,-8.62,73.4,13.87
244,jiuquan,56,CN,1535212953,74,39.73,98.49,57.23,4.61
245,nabisar,8,PK,1535212953,58,25.07,69.64,87.65,14.0
246,flinders,90,AU,1535209200,93,-34.58,150.85,51.8,6.93
247,yar-sale,48,RU,1535212760,81,66.83,70.83,56.96,21.16
248,tevaitoa,88,PF,1535212954,97,-16.78,-151.5,79.55,7.07
249,tuktoyaktuk,40,CA,1535209200,100,69.44,-133.03,41.0,2.24
250,wajima,92,JP,1535212954,98,37.4,136.9,78.2,6.06
251,kruisfontein,0,ZA,1535212955,86,-34.0,24.73,62.45,5.5
252,poronaysk,92,RU,1535212955,100,49.22,143.1,48.5,2.37
253,srandakan,0,ID,1535212955,91,-7.94,110.25,66.68,2.71
254,katangli,36,RU,1535212955,95,51.71,143.23,53.81,1.14
255,yueyang,0,CN,1535212956,70,29.36,113.12,78.65,4.72
256,sitka,12,US,1535212956,79,37.17,-99.65,75.5,7.07
257,semarang,0,ID,1535212802,93,-6.99,110.42,70.82,2.37
258,podor,0,MR,1535212956,52,16.65,-14.96,99.26,9.19
259,kholtoson,0,RU,1535212678,90,50.3,103.31,46.52,1.14
260,wahiawa,90,US,1535208900,80,21.5,-158.02,78.08,3.36
261,sajanan,40,TN,1535209200,61,37.06,9.24,84.2,9.17
262,winnemucca,1,US,1535212560,5,40.97,-117.74,64.94,1.92
263,ponta delgada,40,PT,1535211000,53,37.73,-25.67,77.0,6.93
264,leshukonskoye,0,RU,1535212958,60,64.9,45.76,64.43,7.18
265,merauke,92,ID,1535212958,94,-8.49,140.4,76.85,9.75
266,charters towers,68,AU,1535212958,93,-20.07,146.27,62.63,5.61
267,te anau,24,NZ,1535212958,86,-45.41,167.72,37.25,6.96
268,klaksvik,88,FO,1535210400,87,62.23,-6.59,48.2,4.7
269,cap-aux-meules,5,CA,1535209200,78,47.38,-61.86,73.4,14.99
270,bismarck,20,US,1535212500,67,46.81,-100.78,62.96,6.93
271,portland,75,US,1535208960,86,45.52,-122.67,55.04,4.7
272,sulangan,64,PH,1535212960,99,11.14,123.72,84.5,12.77
273,kununurra,0,AU,1535211000,71,-15.77,128.74,57.2,5.73
274,arraial do cabo,75,BR,1535212800,57,-22.97,-42.02,80.6,6.93
275,coihaique,75,CL,1535209200,81,-45.58,-72.07,48.2,13.87
276,plettenberg bay,0,ZA,1535212779,95,-34.05,23.37,60.02,2.15
277,mopti,20,ML,1535209200,78,14.49,-4.19,77.0,9.17
278,kahului,90,US,1535211960,94,20.89,-156.47,75.92,14.99
279,portobelo,40,PA,1535209200,74,9.55,-79.65,86.0,6.93
280,tarata,0,PE,1535212961,53,-17.47,-70.03,56.78,1.92
281,morahalom,0,HU,1535210100,43,46.22,19.89,87.8,9.17
282,srednekolymsk,88,RU,1535212962,90,67.46,153.71,41.48,4.72
283,tiksi,0,RU,1535212867,98,71.64,128.87,40.22,7.63
284,uyuni,0,BO,1535212962,25,-20.46,-66.82,53.27,5.06
285,albanel,75,CA,1535209200,60,48.88,-72.44,73.4,8.05
286,constitucion,5,MX,1535208300,63,23.99,-104.67,64.4,3.04
287,pontianak,40,ID,1535209200,94,-0.02,109.34,77.0,3.94
288,ouadda,44,CF,1535212963,84,8.07,22.4,76.67,4.94
289,dingzhou,48,CN,1535209200,88,38.51,115.0,77.0,2.24
290,axim,68,GH,1535212964,95,4.87,-2.24,77.12,14.45
291,mehamn,92,NO,1535212964,98,71.03,27.85,54.8,3.49
292,vila franca do campo,40,PT,1535211000,53,37.72,-25.43,77.0,6.93
293,padang,32,ID,1535212964,100,-0.92,100.36,80.27,8.63
294,kefamenanu,68,ID,1535212964,94,-9.45,124.48,68.3,1.92
295,nagornskiy,36,RU,1535212965,73,58.77,57.55,62.9,6.96
296,chicama,90,PE,1535209200,88,-7.84,-79.15,62.6,8.05
297,saiha,92,IN,1535212965,100,22.49,92.98,72.26,1.36
298,nampula,40,MZ,1535209200,47,-15.12,39.26,78.8,5.82
299,birao,92,CF,1535212966,87,10.3,22.78,76.31,6.62
300,zhangjiakou,68,CN,1535212966,98,40.77,114.88,60.29,2.71
301,visnes,40,NO,1535210400,67,59.36,5.22,59.0,9.17
302,savona,40,IT,1535210400,100,44.31,8.48,80.6,9.17
303,ayr,40,GB,1535210400,59,55.46,-4.63,62.6,9.17
304,bandundu,32,CD,1535212967,93,-3.32,17.38,80.54,3.04
305,morgaushi,0,RU,1535209200,48,55.96,46.77,66.2,4.47
306,monrovia,90,LR,1535211000,100,6.33,-10.8,75.2,9.17
307,diamantino,88,BR,1535212967,74,-14.4,-56.44,75.5,9.75
308,cabedelo,75,BR,1535209200,74,-6.97,-34.84,80.6,14.99
309,aksarka,20,RU,1535212968,49,66.56,67.8,55.34,16.24
310,conceicao da barra,0,BR,1535212968,82,-18.59,-39.73,77.93,10.42
311,lat yao,76,TH,1535212968,99,15.75,99.79,72.98,4.38
312,homer,90,US,1535208780,89,59.64,-151.54,51.08,6.73
313,san cristobal,75,EC,1535209200,62,-0.39,-78.55,59.0,14.99
314,dalvik,68,SE,1535210400,58,57.79,14.13,59.0,10.29
315,chumikan,44,RU,1535212970,89,54.72,135.31,58.4,3.15
316,maniitsoq,92,GL,1535212970,100,65.42,-52.9,41.12,11.21
317,ipixuna,75,BR,1535209200,62,-1.76,-48.8,86.0,10.29
318,fairbanks,90,US,1535211180,100,64.84,-147.72,48.02,6.96
319,yenagoa,88,NG,1535212970,93,4.92,6.26,77.84,9.98
320,panjab,0,AF,1535212971,63,34.38,67.02,44.72,2.15
321,totness,20,US,1535210100,65,33.74,-80.8,82.04,6.93
322,wundanyi,88,KE,1535212971,78,-3.4,38.37,68.93,10.09
323,san pedro,0,AR,1535212973,62,-33.68,-59.66,53.18,8.97
324,ewa beach,75,US,1535208900,81,21.32,-158.01,78.08,8.05
325,gouyave,75,GD,1535209200,74,12.16,-61.73,86.0,20.8
326,nanortalik,12,GL,1535212890,100,60.14,-45.24,42.38,14.45
327,bada,92,NG,1535212973,100,12.41,4.51,74.15,10.54
328,margate,0,AU,1535211000,75,-43.03,147.26,46.4,10.29
329,karratha,0,AU,1535212709,74,-20.74,116.85,52.37,3.94
330,thinadhoo,8,MV,1535212794,100,0.53,72.93,82.43,5.06
331,santa fe,0,AR,1535212878,67,-31.62,-60.7,55.7,5.17
332,kashan,0,IR,1535212974,18,33.99,51.44,92.33,5.06
333,adrar,0,DZ,1535209200,13,27.87,-0.29,107.6,18.34
334,waipawa,0,NZ,1535212975,81,-39.94,176.59,32.84,5.17
335,mountain home,1,US,1535209080,49,43.13,-115.69,59.36,3.04
336,mabay,20,CU,1535208600,62,20.35,-76.78,87.8,16.11
337,suleja,75,NG,1535209200,69,9.18,7.18,80.6,8.05
338,cartagena,0,ES,1535211000,55,37.63,-1.0,93.2,10.29
339,muroto,36,JP,1535212702,100,33.37,134.14,77.48,7.63
340,souillac,8,FR,1535211000,64,45.6,-0.6,68.0,12.75
341,beringovskiy,88,RU,1535212977,100,63.05,179.32,47.6,4.61
342,le pradet,90,FR,1535211000,59,46.44,1.83,64.4,8.05
343,at-bashi,48,KG,1535212977,47,41.17,75.81,49.22,3.15
344,villahermosa,75,MX,1535208120,65,18.0,-92.92,82.4,4.7
345,shelburne,90,CA,1535210400,78,44.08,-80.2,75.2,10.29
346,farap,0,TM,1535209200,18,39.18,63.61,82.4,18.34
347,rawson,0,AR,1535212978,33,-43.3,-65.11,54.35,10.09
348,arlit,8,NE,1535212957,34,18.74,7.39,98.36,7.96
349,cidreira,12,BR,1535212978,81,-30.17,-50.22,53.9,25.75
350,bukachacha,56,RU,1535212979,89,52.99,116.91,60.02,2.15
351,kankan,64,GN,1535212979,72,10.38,-9.3,86.3,7.63
352,pryazha,44,RU,1535209200,57,61.69,33.62,75.2,6.71
353,bandarbeyla,0,SO,1535212752,87,9.49,50.81,77.75,38.05
354,sao joao da barra,40,BR,1535209200,51,-21.64,-41.05,84.2,4.7
355,denpasar,20,ID,1535211000,78,-8.65,115.22,78.8,12.75
356,aksha,32,RU,1535212980,87,50.28,113.29,57.86,1.92
357,jumla,92,NP,1535212980,95,29.28,82.18,38.96,2.71
358,oranjestad,20,AW,1535209200,58,12.52,-70.03,87.8,25.28
359,pangnirtung,75,CA,1535209200,53,66.15,-65.72,50.0,12.75
360,leh,8,IN,1535212981,69,34.16,77.58,38.33,1.7
361,moron,48,VE,1535212981,72,10.49,-68.2,80.63,3.38
362,kunming,75,CN,1535209200,82,25.04,102.71,64.4,15.66
363,sur,48,OM,1535212971,86,22.57,59.53,86.21,0.13
364,conceicao do araguaia,0,BR,1535212978,36,-8.26,-49.26,92.78,8.75
365,bukama,0,CD,1535212982,43,-9.2,25.85,89.27,4.94
366,salinas,90,US,1535211300,87,36.67,-121.66,57.92,3.15
367,tangermunde,88,DE,1535212982,66,52.54,11.98,61.46,18.14
368,lichuan,0,CN,1535212983,66,30.3,108.94,65.15,2.71
369,coroata,0,BR,1535212983,34,-6.39,-44.31,93.41,12.55
370,spring hill,40,US,1535211300,66,28.46,-82.54,89.6,7.63
371,havelock,1,US,1535212440,69,34.88,-76.9,84.92,14.99
372,batemans bay,24,AU,1535212984,100,-35.71,150.18,46.7,2.93
373,lubao,90,PH,1535209200,94,14.94,120.6,82.4,2.24
374,beloha,0,MG,1535212984,32,-25.17,45.06,79.1,9.98
375,lagoa,0,PT,1535211000,51,37.14,-8.45,84.2,6.93
376,guangyuan,24,CN,1535212896,84,32.43,105.86,72.08,2.15
377,goya,0,AR,1535212985,73,-29.14,-59.27,57.86,7.07
378,ulladulla,90,AU,1535209200,93,-35.36,150.48,51.8,6.93
379,sechura,0,PE,1535212985,89,-5.56,-80.82,67.67,7.07
380,parintins,0,BR,1535212985,44,-2.63,-56.73,93.95,6.51
381,berasia,75,IN,1535211000,100,23.63,77.43,73.4,8.05
382,hambantota,56,LK,1535212910,93,6.12,81.12,81.89,17.13
383,kendari,32,ID,1535212986,80,-3.99,122.52,75.05,2.59
384,agirish,92,RU,1535212986,80,61.92,63.02,61.91,6.17
385,pisco,90,PE,1535209200,30,-13.71,-76.2,71.6,3.36
386,provideniya,92,RU,1535212691,100,64.42,-173.23,46.52,8.52
387,namibe,0,AO,1535212962,100,-15.19,12.15,65.24,12.44
388,port lincoln,0,AU,1535212987,100,-34.72,135.86,48.05,3.49
389,ixtapa,40,MX,1535208180,100,20.71,-105.21,78.8,6.93
390,cotonou,40,BJ,1535209200,94,6.37,2.43,77.0,16.11
391,dourbali,36,TD,1535212988,83,11.81,15.86,81.44,9.75
392,arica,90,CL,1535209200,67,-18.48,-70.32,60.8,8.05
393,lerwick,68,GB,1535210400,66,60.15,-1.15,53.6,17.22
394,ayagoz,0,KZ,1535212988,24,47.96,80.43,67.67,14.23
395,brownsville,20,US,1535208780,65,25.91,-97.49,89.96,12.75
396,huntsville,90,US,1535211300,63,34.73,-86.59,80.06,8.05
397,satis,0,RU,1535212989,51,54.92,43.23,75.41,3.15
398,aklavik,75,CA,1535209200,100,68.22,-135.01,41.0,4.7
399,popondetta,80,PG,1535212990,96,-8.77,148.24,69.29,1.92
400,kirkuk,0,IQ,1535212990,15,35.47,44.4,102.05,5.39
401,pasinler,0,TR,1535210400,23,39.98,41.67,82.4,4.7
402,keti bandar,80,PK,1535212990,97,24.14,67.45,80.54,16.58
403,arman,75,RU,1535209200,93,59.7,150.17,60.8,2.24
404,port blair,88,IN,1535212991,99,11.67,92.75,81.71,24.29
405,mbeya,0,TZ,1535212991,34,-8.91,33.47,70.82,6.17
406,barcelona,40,ES,1535211000,69,41.38,2.18,77.0,12.75
407,dingle,80,PH,1535212938,82,11.0,122.67,79.28,6.06
408,beyneu,0,KZ,1535212992,21,45.32,55.19,75.77,5.06
409,chuncheng,36,CN,1535212992,100,22.17,111.79,73.7,2.48
410,ulagan,0,RU,1535212993,86,50.63,87.96,42.65,2.71
411,porto novo,75,BR,1535212800,60,-23.68,-45.44,75.2,3.36
412,njombe,68,TZ,1535212993,46,-9.34,34.77,69.47,8.75
413,acari,0,BR,1535212993,37,-6.44,-36.64,89.18,13.67
414,mareeba,20,AU,1535211000,88,-16.99,145.42,66.2,3.36
415,orocue,36,CO,1535212994,62,4.79,-71.34,88.28,4.61
416,daru,92,SL,1535212707,92,7.99,-10.85,78.38,10.09
417,jasper,1,US,1535211480,62,33.83,-87.28,86.0,3.36
418,sayyan,92,YE,1535212994,20,15.17,44.32,79.82,6.96
419,antigonish,1,CA,1535209200,50,45.62,-61.99,78.8,10.29
420,ingham,8,AU,1535212995,100,-18.65,146.16,69.47,3.94
421,kloulklubed,75,PW,1535208600,94,7.04,134.26,75.2,11.77
422,awbari,92,LY,1535212996,19,26.59,12.77,98.09,6.51
423,luderitz,0,NA,1535212996,80,-26.65,15.16,57.05,3.94
424,skiathos,20,GR,1535210400,58,39.16,23.49,84.2,6.4
425,floro,40,NO,1535210400,81,61.6,5.03,51.8,5.82
426,hakkari,0,FI,1535210400,55,61.34,23.75,62.6,8.05
427,kudahuvadhoo,44,MV,1535212997,100,2.67,72.89,82.88,6.62
428,mocuba,8,MZ,1535212997,42,-16.84,36.99,82.25,6.51
429,nevsehir,0,TR,1535210400,10,38.62,34.71,95.0,4.7
430,eyl,20,SO,1535212997,61,7.98,49.82,82.16,24.07
431,tazovskiy,88,RU,1535212998,56,67.47,78.7,62.54,6.51
432,kholodnyy,92,RU,1535212998,100,62.72,147.95,39.32,5.61
433,jalu,0,LY,1535212998,25,29.03,21.55,99.89,9.19
434,hoquiam,90,US,1535208780,86,46.98,-123.89,55.94,5.82
435,honningsvag,100,NO,1535212999,95,70.98,25.97,53.63,3.15
436,laguna,20,MX,1535208180,74,27.52,-110.01,84.2,3.36
437,truth or consequences,1,US,1535212380,51,33.13,-107.25,75.02,3.04
438,samarai,92,PG,1535212999,100,-10.62,150.67,75.41,14.23
439,angoche,0,MZ,1535213000,99,-16.23,39.91,78.47,10.65
440,rajampet,68,IN,1535213000,50,14.19,79.16,87.74,9.42
441,green valley,75,US,1535211300,77,40.41,-89.64,83.12,9.17
442,chengde,76,CN,1535213000,84,40.97,117.93,64.88,4.5
443,harsin,0,IR,1535211000,6,34.27,47.59,95.0,4.7
444,preobrazheniye,100,RU,1535213001,99,42.9,133.91,59.84,2.04
445,novichikha,56,RU,1535213001,91,52.2,81.39,60.29,8.63
446,atar,0,MR,1535212759,14,20.52,-13.05,110.33,9.53
447,chapleau,75,CA,1535209200,72,47.85,-83.4,68.0,10.29
448,salalah,90,OM,1535208600,100,17.01,54.1,73.4,3.36
449,dukat,56,RS,1535212866,45,42.44,22.31,76.58,2.15
450,sinnamary,12,GF,1535213002,87,5.38,-52.96,84.68,10.09
451,ligayan,76,PH,1535213002,100,4.65,119.47,83.24,8.75
452,murakami,88,JP,1535213002,87,38.29,139.58,74.78,4.72
453,saint-joseph,0,FR,1535211000,26,43.56,6.97,82.4,16.11
454,ereymentau,48,KZ,1535213003,68,51.62,73.1,53.72,8.41
455,miles city,1,US,1535212380,64,46.41,-105.84,62.06,9.17
456,stralsund,40,DE,1535210400,67,54.31,13.08,59.0,10.29
457,lamlash,40,GB,1535210400,59,55.53,-5.13,62.6,9.17
458,vao,92,EE,1535212982,69,59.1,26.19,65.96,4.05
459,bowen,40,AU,1535209200,88,-20.01,148.25,62.6,3.36
460,rocha,12,UY,1535212770,75,-34.48,-54.34,49.58,23.51
461,lichinga,0,MZ,1535213005,61,-13.3,35.25,68.48,4.05
462,oakland,90,US,1535211600,87,37.8,-122.27,62.06,9.17
463,imbituba,0,BR,1535212800,40,-28.24,-48.67,69.8,13.87
464,lompoc,90,US,1535211300,93,34.64,-120.46,66.92,4.05
465,hastings,0,NZ,1535213006,100,-39.64,176.84,43.64,9.19
466,alta floresta,8,BR,1535213007,62,-9.87,-56.08,85.13,2.71
467,marystown,0,CA,1535212966,79,47.17,-55.16,70.01,10.09
468,diego de almagro,0,CL,1535213007,73,-26.39,-70.05,65.69,1.59
469,edd,8,ER,1535213008,25,13.93,41.69,98.27,9.19
470,bitkine,56,TD,1535213008,69,11.98,18.21,82.07,10.76
471,morro da fumaca,0,BR,1535212954,89,-28.65,-49.21,62.0,18.03
472,pimenta bueno,92,BR,1535213008,98,-11.68,-61.19,70.01,2.93
473,deming,75,US,1535212500,70,32.27,-107.76,73.58,3.36
474,frutal,48,BR,1535213009,100,-20.02,-48.93,75.68,4.72
475,altamira,75,BR,1535209200,62,-3.2,-52.21,87.8,3.36
476,bambanglipuro,0,ID,1535213009,91,-7.95,110.28,66.68,2.71
477,mosquera,75,CO,1535209200,48,4.71,-74.23,62.6,13.87
478,tolbazy,75,RU,1535209200,77,54.01,55.89,59.0,8.95
479,znamenskoye,92,RU,1535213010,96,57.13,73.82,60.2,13.56
480,wewak,44,PG,1535213010,100,-3.55,143.63,73.97,2.48
481,labuan,75,BN,1535211000,83,5.28,115.24,82.4,1.12
482,celestun,0,MX,1535213011,100,20.87,-90.4,80.81,8.75
483,miguel hidalgo,40,MX,1535210040,68,19.41,-99.19,71.6,1.92
484,freeport,75,BS,1535209200,70,26.54,-78.7,87.8,6.93
485,emborion,40,GR,1535208600,28,40.48,21.55,86.0,3.15
486,severo-kurilsk,32,RU,1535212934,100,50.68,156.12,47.42,4.72
487,erzin,40,TR,1535210400,62,36.95,36.2,87.8,12.75
488,scarborough,80,GB,1535208600,45,54.28,-0.41,64.4,4.7
489,myitkyina,56,MM,1535212788,98,25.38,97.4,74.96,2.37
490,nome,1,US,1535210100,58,30.04,-94.42,87.98,4.7
491,moerai,44,PF,1535213013,96,-22.43,-151.33,75.14,13.22
492,rawlins,40,US,1535209800,38,41.79,-107.24,71.6,13.87
493,limon,1,US,1535208900,53,39.26,-103.69,71.96,9.17
494,howard springs,0,AU,1535211000,88,-12.5,131.05,73.4,1.12
495,gumdag,0,TM,1535213014,23,39.2,54.59,90.26,4.61
496,nantucket,20,US,1535211300,57,41.28,-70.1,77.0,7.52
497,port hardy,90,CA,1535209200,93,50.7,-127.42,55.4,5.82
498,namatanai,20,PG,1535213014,100,-3.66,152.44,81.44,1.48
499,clarence town,40,AU,1535211000,87,-32.59,151.78,55.4,1.12
500,aksu,75,KZ,1535209200,71,52.04,76.93,57.2,6.71
501,bredy,80,RU,1535213015,60,52.43,60.33,59.48,14.0
502,inhambane,20,MZ,1535209200,73,-23.87,35.38,75.2,13.87
503,coahuayana,56,MX,1535213015,74,18.62,-100.35,70.37,2.48
504,robertson,0,ZA,1535213016,40,-33.8,19.88,56.42,10.65
505,viru,100,EE,1535208600,100,57.74,26.74,64.4,2.24
506,polonnaruwa,56,LK,1535213016,69,7.94,81.0,79.28,8.63
507,mandalgovi,0,MN,1535213016,95,45.76,106.27,52.28,9.98
508,ambon,0,FR,1535211000,63,47.55,-2.56,66.2,10.29
509,tortoli,40,IT,1535208900,37,39.93,9.66,86.0,12.66
510,talnakh,92,RU,1535212784,88,69.49,88.39,52.37,1.7
511,rumphi,44,MW,1535213017,34,-11.02,33.86,73.07,5.95
512,dutse,36,NG,1535213017,71,11.76,9.34,84.32,10.2
513,letlhakane,0,BW,1535213018,23,-21.42,25.59,84.86,6.06
514,amarpur,68,IN,1535213018,87,23.52,91.65,79.91,3.38
515,tynda,20,RU,1535213018,91,55.15,124.74,59.57,1.92
516,ahipara,92,NZ,1535213018,92,-35.17,173.16,54.98,11.54
517,yamada,75,JP,1535209200,83,36.58,137.08,82.4,5.82
518,acapulco,40,MX,1535208300,74,16.86,-99.88,82.4,4.7
519,golden,90,CA,1535209200,81,51.3,-116.96,48.2,9.17
520,taoudenni,0,ML,1535212725,13,22.68,-3.98,112.13,8.75
521,presidente medici,92,BR,1535212980,96,-11.18,-61.9,72.62,3.71
522,ostrovnoy,20,RU,1535213019,67,68.05,39.51,66.14,25.86
523,sabang,88,PH,1535213019,85,13.72,123.58,82.16,11.77
524,urgut,0,UZ,1535209200,33,39.41,67.25,75.2,11.41
525,rorvik,92,NO,1535213020,100,64.86,11.24,52.37,9.42
526,narsaq,75,GL,1535212200,66,60.91,-46.05,48.2,13.87
527,soroti,56,UG,1535213020,85,1.71,33.61,74.33,4.05
528,sibolga,20,ID,1535213020,100,1.74,98.78,69.74,1.7
529,varhaug,40,NO,1535210400,67,58.61,5.65,59.0,11.41
530,back mountain,1,US,1535212440,43,41.34,-76.0,75.92,8.05
531,oussouye,40,SN,1535209200,70,12.49,-16.54,98.6,6.93
532,porto velho,40,BR,1535212800,49,-8.75,-63.87,89.6,4.7
533,soyo,0,AO,1535213022,51,-6.13,12.37,84.5,7.63
534,osinki,92,PL,1535213022,100,54.14,22.99,58.76,9.64
535,weyburn,0,CA,1535213022,64,49.67,-103.85,56.15,11.99
536,petropavlovsk-kamchatskiy,40,RU,1535209200,100,53.05,158.65,50.0,4.47
537,labytnangi,0,RU,1535213023,79,66.66,66.39,53.54,8.97
538,gravdal,40,NO,1535210400,67,59.79,5.78,57.2,9.17
539,ciudad bolivar,8,VE,1535213024,97,8.12,-63.55,81.62,10.65
540,kampong cham,92,KH,1535213024,95,11.99,105.46,76.76,5.17
541,kedrovyy,0,RU,1535211000,87,56.17,91.82,55.4,2.24
542,qostanay,90,KZ,1535211000,82,53.17,63.58,55.4,8.95
543,dobrun,0,RO,1535211000,33,44.27,24.21,87.8,1.12
544,itarema,0,BR,1535213025,56,-2.92,-39.92,90.98,14.67
545,yumen,80,CN,1535213012,43,40.29,97.04,69.02,10.76
546,alice springs,0,AU,1535211000,48,-23.7,133.88,44.6,5.82
547,marondera,64,ZW,1535213026,43,-18.19,31.55,71.99,8.08
548,przhevalskoye,12,RU,1535213026,49,55.51,31.85,76.22,13.22
549,yining,88,CN,1535213026,68,29.04,114.56,77.48,6.4
550,chihuahua,40,MX,1535208780,60,28.66,-106.08,71.6,4.16
551,salima,0,MW,1535213027,58,-13.78,34.45,72.35,6.62
552,chapais,90,CA,1535209200,72,49.78,-74.86,68.0,9.17
553,marovoay,40,MG,1535209200,65,-16.11,46.64,78.8,4.7
554,gasa,48,BT,1535213027,87,27.91,89.73,35.72,1.7
555,moranbah,68,AU,1535213028,94,-22.0,148.04,60.02,7.18
556,ende,56,ID,1535213028,100,-8.84,121.65,77.48,4.16
557,conway,1,US,1535211300,78,35.09,-92.44,82.04,3.71
558,kailua,75,US,1535208900,87,21.39,-157.74,78.08,12.75
559,orlik,0,RU,1535213029,90,52.51,99.83,40.22,1.92
560,aketi,36,CD,1535213029,98,2.74,23.78,74.69,1.7
561,pyapon,92,MM,1535213029,100,16.29,95.68,77.39,12.66
562,zhezkazgan,48,KZ,1535213029,87,47.8,67.71,54.35,8.52
563,san matias,56,HN,1535212800,78,13.97,-86.63,71.6,4.7
564,houma,0,CN,1535212781,66,35.63,111.36,69.65,4.5
565,sao felix do xingu,0,BR,1535212921,44,-6.64,-51.99,92.51,2.71
566,malacacheta,0,BR,1535213030,47,-17.84,-42.08,82.34,6.17
567,oyama,75,JP,1535209200,94,36.31,139.8,77.0,1.12
568,boma,76,NG,1535213032,95,11.23,4.46,77.93,13.56
569,vostok,92,RU,1535212968,86,46.45,135.83,54.26,2.15
570,sisimiut,88,GL,1535213032,73,66.94,-53.67,43.28,9.42
571,olinda,90,EC,1535209200,69,-2.03,-79.75,75.2,5.82
572,ancud,92,CL,1535213032,100,-41.87,-73.83,51.47,5.06
